accx,accy,accz,gyrox,gyroy,gyroz,magx,magy,magz,imu_time,fix_type,pdop,num_svs,latitude,longitude,altitude,course_deg,speed,time_of_day,roll,pitch,yaw,baro_pressure_mbar,baro_temp_c,mag_x_cal,mag_y_cal,mag_z_cal
0.45462185,-0.2525677,9.790442,0.043385506,0.029893517,0.018594503,-400.0,-276.0,-3.0,426708800.0,NoFix,12,0,0.0,0.0,0,0.0,0.0,0,-156.81984,87.3406,135.4083,981.27264,24.810272,120.5724,-363.3466,-473.18982
0.44084543,-0.26175198,9.785851,0.043385506,0.029893517,-0.016405523,-400.0,-274.0,-1.0,428011200.0,NoFix,12,0,0.0,0.0,0,0.0,0.0,0,-156.78777,87.340965,135.43576,981.27264,24.810272,120.544876,-359.51294,-469.43164
0.44543758,-0.25715983,9.781258,0.043385506,0.029893517,-0.016405523,-404.0,-282.0,-6.0,429313950.0,NoFix,12,0,0.0,0.0,0,0.0,0.0,0,-156.75989,87.34177,135.4608,981.27264,24.810272,127.95988,-375.0808,-478.64886
0.459214,-0.25715983,9.785851,0.008385479,-0.040106535,0.018594503,-399.0,-271.0,-7.0,430615940.0,NoFix,12,0,0.0,0.0,0,0.0,0.0,0,-156.73335,87.34052,135.48317,981.27313,24.814812,118.59684,-353.32147,-481.13336
0.46380612,-0.26634413,9.776666,0.043385506,-0.005106449,0.05359447,-400.0,-274.0,1.0,431918300.0,NoFix,12,0,0.0,0.0,0,0.0,0.0,0,-156.70877,87.339714,135.50186,981.27313,24.814812,120.56439,-359.6057,-465.5807
0.45462185,-0.26634413,9.776666,0.043385506,-0.005106449,0.088594496,-401.0,-271.0,3.0,433220670.0,NoFix,12,0,0.0,0.0,0,0.0,0.0,0,-156.68117,87.33905,135.52586,981.27313,24.814812,122.33224,-353.83237,-461.85913
0.44084543,-0.25715983,9.781258,0.07838553,-0.005106449,0.018594503,-399.0,-271.0,3.0,434523070.0,NoFix,12,0,0.0,0.0,0,0.0,0.0,0,-156.6689,87.339485,135.53323,981.27313,24.814812,118.694435,-353.7853,-461.87863
0.43625328,-0.23419914,9.781258,0.043385506,0.064893484,0.018594503,-399.0,-277.0,3.0,435825440.0,NoFix,12,0,0.0,0.0,0,0.0,0.0,0,-156.64723,87.34163,135.54712,981.27313,24.814812,118.83558,-365.56458,-461.60034
0.43625328,-0.21123843,9.781258,0.07838553,-0.005106449,-0.05140549,-400.0,-275.0,-2.0,437127800.0,NoFix,12,0,0.0,0.0,0,0.0,0.0,0,-156.66248,87.34288,135.52797,981.2718,24.814812,120.55864,-361.42975,-471.31073
0.44084543,-0.20205414,9.785851,0.008385479,0.029893517,-0.016405523,-398.0,-279.0,2.0,438430200.0,NoFix,12,0,0.0,0.0,0,0.0,0.0,0,-156.65494,87.344055,135.52571,981.2718,24.814812,117.05397,-369.42108,-463.4428
0.4500297,-0.22042271,9.795034,-0.026614487,-0.005106449,-0.016405523,-399.0,-275.0,-2.0,439732580.0,NoFix,12,0,0.0,0.0,0,0.0,0.0,0,-156.63208,87.34361,135.54242,981.2718,24.814812,118.73974,-361.40622,-471.3205
0.4500297,-0.23879129,9.795034,0.008385479,-0.005106449,-0.016405523,-403.0,-274.0,-1.0,441034940.0,NoFix,12,0,0.0,0.0,0,0.0,0.0,0,-156.6104,87.34347,135.56422,981.2718,24.814812,126.00158,-359.5835,-469.40234
0.45462185,-0.24797554,9.790442,-0.026614487,-0.040106535,-0.016405523,-399.0,-278.0,-3.0,442337300.0,NoFix,12,0,0.0,0.0,0,0.0,0.0,0,-156.57799,87.34214,135.58914,981.2718,24.814812,118.80055,-367.24948,-473.1068
0.46380612,-0.25715983,9.785851,0.008385479,0.064893484,-0.016405523,-403.0,-273.0,5.0,443639700.0,NoFix,12,0,0.0,0.0,0,0.0,0.0,0,-156.539,87.34258,135.62834,981.27295,24.827286,126.036606,-357.89856,-457.89587
0.45462185,-0.26175198,9.776666,0.008385479,-0.005106449,-0.016405523,-403.0,-274.0,-2.0,444942080.0,NoFix,12,0,0.0,0.0,0,0.0,0.0,0,-156.5054,87.34184,135.66206,981.27295,24.827286,125.99181,-359.5371,-471.32782
0.44543758,-0.26175198,9.781258,-0.026614487,-0.005106449,0.018594503,-399.0,-275.0,-1.0,446244450.0,NoFix,12,0,0.0,0.0,0,0.0,0.0,0,-156.45732,87.341255,135.70366,981.27295,24.827286,118.749504,-361.4526,-469.39502
0.44084543,-0.27093625,9.785851,-0.026614487,-0.005106449,0.018594503,-403.0,-275.0,-7.0,447546850.0,NoFix,12,0,0.0,0.0,0,0.0,0.0,0,-156.40277,87.34052,135.7573,981.27295,24.827286,125.966545,-361.2684,-480.90878
0.44543758,-0.26634413,9.785851,0.008385479,-0.005106449,0.018594503,-402.0,-269.0,-2.0,448849200.0,NoFix,12,0,0.0,0.0,0,0.0,0.0,0,-156.36418,87.339935,135.79675,981.27295,24.827286,124.05529,-349.6975,-471.56952
0.459214,-0.23879129,9.785851,0.008385479,-0.005106449,0.018594503,-401.0,-272.0,4.0,450151580.0,NoFix,12,0,0.0,0.0,0,0.0,0.0,0,-156.34593,87.33986,135.81284,981.2738,24.827286,122.365524,-355.84198,-459.88727
0.459214,-0.22501485,9.781258,-0.026614487,0.029893517,-0.016405523,-397.0,-274.0,-2.0,451453980.0,NoFix,12,0,0.0,0.0,0,0.0,0.0,0,-156.31934,87.339485,135.83107,981.2738,24.827286,115.07841,-359.39597,-471.38638
0.45462185,-0.22042271,9.776666,-0.026614487,-0.005106449,-0.016405523,-404.0,-275.0,-2.0,452756350.0,NoFix,12,0,0.0,0.0,0,0.0,0.0,0,-156.29979,87.339195,135.85164,981.2738,24.827286,127.834236,-361.52383,-471.2717
0.44084543,-0.22501485,9.790442,0.008385479,-0.005106449,0.018594503,-405.0,-271.0,-1.0,454058720.0,NoFix,12,0,0.0,0.0,0,0.0,0.0,0,-156.28502,87.339485,135.8704,981.2738,24.827286,129.5688,-353.7409,-469.52197
0.44084543,-0.229607,9.790442,0.008385479,-0.005106449,-0.05140549,-399.0,-274.0,-7.0,455361120.0,NoFix,12,0,0.0,0.0,0,0.0,0.0,0,-156.26906,87.33964,135.88194,981.2738,24.827286,118.66741,-359.21112,-480.9942
0.45462185,-0.23879129,9.790442,0.008385479,-0.005106449,-0.016405523,-398.0,-276.0,-4.0,456663500.0,NoFix,12,0,0.0,0.0,0,0.0,0.0,0,-156.25058,87.33912,135.89253,981.2743,24.832108,116.92484,-363.25314,-475.13483
0.4500297,-0.25715983,9.781258,0.008385479,-0.005106449,-0.016405523,-402.0,-278.0,-1.0,457965860.0,NoFix,12,0,0.0,0.0,0,0.0,0.0,0,-156.22043,87.33905,135.91951,981.2743,24.832108,124.27678,-367.4128,-469.2266
0.43625328,-0.26175198,9.781258,0.008385479,0.029893517,0.018594503,-402.0,-276.0,-1.0,459268220.0,NoFix,12,0,0.0,0.0,0,0.0,0.0,0,-156.17805,87.339424,135.95879,981.2743,24.832108,124.22973,-363.4864,-469.31934
0.46830404,-0.23874325,9.788472,-0.061614513,-0.005106449,0.05359447,-400.0,-271.0,5.0,494432450.0,NoFix,12,0,0.0,0.0,0,0.0,0.0,0,-155.61595,87.33905,136.464,981.27234,24.853088,120.53286,-353.90158,-458.0179
0.44993955,-0.23874345,9.788481,-0.061614513,0.029893517,0.05359447,-401.0,-271.0,-4.0,495734850.0,NoFix,12,0,0.0,0.0,0,0.0,0.0,0,-155.57005,87.3389,136.5081,981.2711,24.853088,122.26392,-353.50766,-475.33746
0.4361658,-0.23874341,9.783889,-0.061614513,-0.040106535,0.018594503,-399.0,-273.0,-3.0,497037220.0,NoFix,12,0,0.0,0.0,0,0.0,0.0,0,-155.53204,87.33772,136.54083,981.2711,24.853088,118.68293,-357.4334,-473.3387
0.43616334,-0.24333322,9.779241,-0.026614487,0.029893517,0.018594503,-400.0,-273.0,-8.0,498339600.0,NoFix,12,0,0.0,0.0,0,0.0,0.0,0,-155.49275,87.33831,136.5769,981.2711,24.853088,120.45303,-357.22504,-482.95633
0.4407567,-0.24792564,9.779289,-0.026614487,-0.005106449,-0.016405523,-403.0,-276.0,4.0,499642000.0,NoFix,12,0,0.0,0.0,0,0.0,0.0,0,-155.4581,87.33802,136.6105,981.2711,24.853088,126.09743,-363.74185,-459.6822
0.44993186,-0.25251278,9.783723,-0.026614487,-0.005106449,0.018594503,-404.0,-272.0,-4.0,500944350.0,NoFix,12,0,0.0,0.0,0,0.0,0.0,0,-155.42282,87.33751,136.64839,981.2711,24.853088,127.74415,-355.54144,-475.26178
0.46370813,-0.2571055,9.779191,0.043385506,-0.040106535,-0.016405523,-405.0,-274.0,-6.0,502246720.0,NoFix,12,0,0.0,0.0,0,0.0,0.0,0,-155.41798,87.33597,136.6564,981.27124,24.854507,129.59058,-359.39865,-479.0102
0.46373898,-0.26171407,9.77525,0.008385479,-0.005106449,-0.016405523,-405.0,-278.0,-6.0,503549120.0,NoFix,12,0,0.0,0.0,0,0.0,0.0,0,-155.39351,87.33493,136.68178,981.27124,24.854507,129.68468,-367.2515,-478.82465
0.459124,-0.2571094,9.779341,0.043385506,0.029893517,0.018594503,-409.0,-276.0,-1.0,504851500.0,NoFix,12,0,0.0,0.0,0,0.0,0.0,0,-155.37648,87.33552,136.70589,981.27124,24.854507,136.96204,-363.65106,-469.25104
0.4545304,-0.24792567,9.77929,-0.026614487,0.029893517,0.018594503,-406.0,-280.0,-4.0,506153860.0,NoFix,12,0,0.0,0.0,0,0.0,0.0,0,-155.34007,87.33501,136.74234,981.27124,24.854507,131.57014,-371.2942,-474.87122
0.4453719,-0.22957315,9.779816,0.008385479,0.029893517,0.018594503,-400.0,-272.0,-2.0,507456260.0,NoFix,12,0,0.0,0.0,0,0.0,0.0,0,-155.32407,87.33597,136.75533,981.27124,24.854507,120.48806,-355.54013,-471.44986
0.4407582,-0.22956157,9.779323,0.008385479,-0.005106449,0.018594503,-401.0,-281.0,-4.0,508758620.0,NoFix,12,0,0.0,0.0,0,0.0,0.0,0,-155.31209,87.336105,136.76048,981.2704,24.854507,122.49917,-373.13977,-474.87363
0.4407696,-0.24334154,9.784167,0.043385506,-0.005106449,-0.016405523,-400.0,-275.0,-4.0,510061000.0,NoFix,12,0,0.0,0.0,0,0.0,0.0,0,-155.3044,87.33626,136.76384,981.2704,24.854507,120.53912,-361.33698,-475.16168
0.44995028,-0.2479318,9.788714,0.008385479,0.029893517,-0.016405523,-404.0,-272.0,-4.0,511363400.0,NoFix,12,0,0.0,0.0,0,0.0,0.0,0,-155.27974,87.33669,136.79182,981.2704,24.854507,127.74415,-355.54144,-475.26178
0.45912153,-0.24792562,9.78388,-0.061614513,0.029893517,-0.086405516,-402.0,-274.0,-6.0,512665760.0,NoFix,12,0,0.0,0.0,0,0.0,0.0,0,-155.23569,87.3364,136.83679,981.2704,24.854507,124.13388,-359.32806,-479.03946
0.45913506,-0.24793293,9.779576,0.008385479,0.029893517,-0.05140549,-404.0,-272.0,3.0,513968130.0,NoFix,12,0,0.0,0.0,0,0.0,0.0,0,-155.21443,87.3364,136.8613,981.2704,24.854507,127.81246,-355.86615,-461.78345
0.45453,-0.24792545,9.788465,0.008385479,0.029893517,-0.016405523,-398.0,-277.0,-1.0,515270530.0,NoFix,12,0,0.0,0.0,0,0.0,0.0,0,-155.19144,87.336555,136.87613,981.27124,24.863014,116.977646,-365.3555,-469.312
0.45453006,-0.25251672,9.7838745,0.043385506,-0.005106449,-0.016405523,-403.0,-273.0,2.0,516572900.0,NoFix,12,0,0.0,0.0,0,0.0,0.0,0,-155.18297,87.336555,136.88542,981.27124,24.863014,126.007324,-357.75943,-463.6723
0.45453906,-0.2617043,9.774885,-0.026614487,-0.005106449,0.018594503,-398.0,-273.0,-1.0,517875300.0,NoFix,12,0,0.0,0.0,0,0.0,0.0,0,-155.14514,87.33552,136.9165,981.27124,24.863014,116.88355,-357.50266,-469.49753
0.45453635,-0.26170275,9.774827,0.008385479,-0.005106449,0.05359447,-405.0,-275.0,-3.0,519177660.0,NoFix,12,0,0.0,0.0,0,0.0,0.0,0,-155.11842,87.334496,136.94434,981.27124,24.863014,129.64339,-361.50098,-473.1874
0.454547,-0.26170886,9.775056,0.008385479,-0.005106449,-0.016405523,-402.0,-272.0,1.0,520480030.0,NoFix,12,0,0.0,0.0,0,0.0,0.0,0,-155.0932,87.333466,136.9692,981.27124,24.863014,124.15514,-355.72632,-465.65393
0.4453622,-0.25252497,9.779603,0.008385479,0.029893517,0.018594503,-407.0,-278.0,-1.0,521782430.0,NoFix,12,0,0.0,0.0,0,0.0,0.0,0,-155.0651,87.33405,137.00027,981.2717,24.863014,133.37128,-367.53046,-469.1778
0.43617374,-0.23415643,9.784066,0.043385506,-0.005106449,-0.016405523,-399.0,-275.0,1.0,523084800.0,NoFix,12,0,0.0,0.0,0,0.0,0.0,0,-155.06314,87.33493,136.99666,981.2717,24.863014,118.76902,-361.54538,-465.54407
0.43617412,-0.22956534,9.779483,-0.026614487,-0.005106449,-0.05140549,-400.0,-270.0,-1.0,524387230.0,NoFix,12,0,0.0,0.0,0,0.0,0.0,0,-155.04112,87.33508,137.01788,981.2717,24.863014,120.45078,-351.6601,-469.61716
0.44994354,-0.22956304,9.7839775,0.008385479,-0.005106449,0.018594503,-402.0,-275.0,1.0,525689570.0,NoFix,12,0,0.0,0.0,0,0.0,0.0,0,-155.03326,87.33493,137.02333,981.2717,24.863014,124.22572,-361.61594,-465.51477
0.4453502,-0.2341532,9.788522,-0.026614487,-0.040106535,0.018594503,-406.0,-272.0,-2.0,526992000.0,NoFix,12,0,0.0,0.0,0,0.0,0.0,0,-155.01534,87.33391,137.04623,981.2717,24.863014,131.40147,-355.68127,-471.39133
0.44994158,-0.247927,9.783934,-0.026614487,-0.005106449,-0.016405523,-399.0,-271.0,-4.0,528294300.0,NoFix,12,0,0.0,0.0,0,0.0,0.0,0,-154.98598,87.33317,137.07213,981.2725,24.872086,118.62612,-353.4606,-475.35696
0.45453495,-0.25711066,9.783979,0.008385479,0.029893517,0.018594503,-402.0,-273.0,1.0,529596700.0,NoFix,12,0,0.0,0.0,0,0.0,0.0,0,-154.95825,87.33317,137.09868,981.2725,24.872086,124.17867,-357.6895,-465.60754
0.44535047,-0.25710952,9.7885275,0.043385506,-0.005106449,0.018594503,-402.0,-276.0,-4.0,530899070.0,NoFix,12,0,0.0,0.0,0,0.0,0.0,0,-154.94518,87.33317,137.10909,981.2725,24.872086,124.20045,-363.34723,-475.09576
0.44075954,-0.24792723,9.779352,0.008385479,-0.005106449,-0.05140549,-400.0,-269.0,-2.0,532201440.0,NoFix,12,0,0.0,0.0,0,0.0,0.0,0,-154.92615,87.333466,137.12825,981.2725,24.872086,120.41749,-349.65048,-471.58902
0.445353,-0.24792847,9.77481,-0.026614487,-0.005106449,-0.016405523,-403.0,-272.0,1.0,533503840.0,NoFix,12,0,0.0,0.0,0,0.0,0.0,0,-154.89589,87.33258,137.15953,981.27295,24.872086,125.97405,-355.74985,-465.64417
0.45452854,-0.25710705,9.783842,-0.026614487,-0.005106449,0.018594503,-405.0,-273.0,1.0,534806200.0,NoFix,12,0,0.0,0.0,0,0.0,0.0,0,-154.8625,87.33156,137.19565,981.27295,24.872086,129.63536,-357.7601,-465.57828
0.44993263,-0.25251323,9.78374,-0.026614487,-0.005106449,0.05359447,-401.0,-274.0,-3.0,536108600.0,NoFix,12,0,0.0,0.0,0,0.0,0.0,0,-154.83015,87.33097,137.22444,981.27295,24.872086,122.34425,-359.4437,-473.27283
0.4499258,-0.24332723,9.783591,0.043385506,-0.005106449,0.05359447,-403.0,-274.0,-3.0,537410940.0,NoFix,12,0,0.0,0.0,0,0.0,0.0,0,-154.8264,87.33097,137.22731,981.27295,24.872086,125.982056,-359.49072,-473.2533
0.4453307,-0.23414294,9.778911,0.008385479,0.029893517,0.088594496,-405.0,-270.0,4.0,538713340.0,NoFix,12,0,0.0,0.0,0,0.0,0.0,0,-154.80931,87.33199,137.24802,981.27295,24.872086,129.59407,-352.00964,-459.94098
0.44073787,-0.22955097,9.783463,0.008385479,0.029893517,0.018594503,-398.0,-275.0,2.0,540015740.0,NoFix,12,0,0.0,0.0,0,0.0,0.0,0,-154.79483,87.33303,137.2546,981.27295,24.872086,116.95988,-361.56824,-463.62833
0.43614748,-0.22496027,9.783477,-0.026614487,0.029893517,0.018594503,-402.0,-271.0,5.0,541318100.0,NoFix,12,0,0.0,0.0,0,0.0,0.0,0,-154.77025,87.33391,137.27902,981.27295,24.872086,124.17066,-353.9486,-457.9984
0.4361501,-0.23414373,9.783536,0.008385479,-0.005106449,0.018594503,-403.0,-275.0,3.0,542620500.0,NoFix,12,0,0.0,0.0,0,0.0,0.0,0,-154.75752,87.334206,137.2907,981.27295,24.872086,126.06414,-361.73224,-461.65405
0.44992763,-0.2479193,9.779039,-0.026614487,-0.005106449,-0.016405523,-404.0,-275.0,1.0,543922900.0,NoFix,12,0,0.0,0.0,0,0.0,0.0,0,-154.72957,87.333244,137.31934,981.27295,24.872086,127.86352,-361.663,-465.49527
0.4591136,-0.2571036,9.7837105,0.008385479,-0.005106449,-0.016405523,-403.0,-272.0,-1.0,545225300.0,NoFix,12,0,0.0,0.0,0,0.0,0.0,0,-154.71072,87.33251,137.33966,981.27295,24.872086,125.95454,-355.65707,-469.49512
0.45911485,-0.25710428,9.783737,0.008385479,-0.005106449,-0.016405523,-404.0,-277.0,-3.0,546527600.0,NoFix,12,0,0.0,0.0,0,0.0,0.0,0,-154.69193,87.33156,137.35843,981.27295,24.872086,127.87154,-365.40387,-473.1044
0.45452067,-0.25710258,9.783672,0.008385479,-0.005106449,0.018594503,-401.0,-270.0,-2.0,547830000.0,NoFix,12,0,0.0,0.0,0,0.0,0.0,0,-154.67133,87.330894,137.37814,981.2734,24.876343,122.25992,-351.63724,-471.53287
0.4499317,-0.24792156,9.779128,0.0003643632,0.023332715,0.01093775,-403.0,-272.0,-1.0,549132400.0,NoFix,12,0,0.0,0.0,0,0.0,0.0,0,-154.64813,87.33134,137.40268,981.2734,24.876343,125.95454,-355.65707,-469.49512
0.44534525,-0.24333297,9.783822,-0.034271,0.023332715,0.010573149,-402.0,-274.0,1.0,550434750.0,NoFix,12,0,0.0,0.0,0,0.0,0.0,0,-154.6149,87.33134,137.43427,981.2734,24.876343,124.202194,-359.65274,-465.56116
0.40404743,-0.22957242,9.738462,0.14072901,0.1633327,0.010573149,-400.0,-277.0,-2.0,551737150.0,NoFix,12,0,0.0,0.0,0,0.0,0.0,0,-154.61412,87.33707,137.4295,981.2734,24.876343,120.60568,-365.35617,-471.21796
1.1019475,0.06428027,9.7338705,-0.62927103,-3.0916674,-6.149427,-399.0,-278.0,-7.0,553039550.0,NoFix,12,0,0.0,0.0,0,0.0,0.0,0,-155.33362,87.255615,136.8113,981.2734,24.876343,118.76151,-367.06396,-480.8087
1.4600805,0.036731586,9.545621,3.3607292,4.783333,-35.86443,-404.0,-279.0,-2.0,554341900.0,NoFix,12,0,0.0,0.0,0,0.0,0.0,0,-156.83022,87.34538,135.99722,981.26953,24.876343,127.92834,-369.37668,-471.08615
0.32599285,-0.41782182,9.844066,-1.7142711,-8.621668,-17.139427,-405.0,-272.0,-5.0,555644300.0,NoFix,12,0,0.0,0.0,0,0.0,0.0,0,-157.62314,87.16758,135.51186,981.26953,24.876343,129.5533,-355.51862,-477.17746
-0.69330865,-0.5831139,9.880796,-0.20927101,-6.171667,5.2605734,-398.0,-269.0,-7.0,556946700.0,NoFix,12,0,0.0,0.0,0,0.0,0.0,0,-157.78458,87.08194,135.23405,981.26953,24.876343,116.73089,-349.37152,-481.2359
-1.3866173,-0.8769666,9.89457,1.680729,-8.026668,12.540573,-405.0,-277.0,-4.0,558249000.0,NoFix,12,0,0.0,0.0,0,0.0,0.0,0,-159.0541,86.94078,133.71086,981.26953,24.876343,129.68066,-365.381,-475.0201
-0.36272442,-0.6382113,10.183832,4.305729,3.0333328,49.395573,-388.0,-276.0,-1.0,559551400.0,NoFix,12,0,0.0,0.0,0,0.0,0.0,0,-158.68439,87.05509,133.13025,981.26953,24.876343,98.76511,-363.15707,-469.45596
1.1937766,-0.39945602,10.064455,9.4157295,3.3133326,37.56557,-401.0,-276.0,3.0,560853800.0,NoFix,12,0,0.0,0.0,0,0.0,0.0,0,-160.63405,87.16309,130.47249,981.2703,24.884567,122.44986,-363.64844,-461.6272
1.3544773,-0.3902731,11.3454685,20.580729,11.818333,21.430573,-399.0,-282.0,7.0,562156160.0,NoFix,12,0,0.0,0.0,0,0.0,0.0,0,-166.23828,87.49954,124.47277,981.2703,24.884567,118.99224,-375.56616,-453.6665
0.6749429,-0.3030356,12.80555,53.830727,46.958332,15.690574,-396.0,-285.0,8.0,563458560.0,NoFix,12,0,0.0,0.0,0,0.0,0.0,0,169.72607,88.63326,100.15586,981.2703,24.884567,113.61587,-381.43158,-451.63116
-0.51883364,-0.39486456,12.727495,70.45573,58.333332,18.805573,-403.0,-290.0,11.0,564760960.0,NoFix,12,0,0.0,0.0,0,0.0,0.0,0,113.64547,88.7262,43.243267,981.2703,24.884567,126.49508,-391.55148,-445.55453
-0.6565771,-0.1698836,11.946949,60.44573,52.908333,19.820574,-405.0,-292.0,21.0,566063360.0,NoFix,12,0,0.0,0.0,0,0.0,0.0,0,84.09801,87.50597,13.180119,981.2703,24.884567,130.27753,-395.9888,-426.1875
-0.30762705,-0.07346317,11.363834,61.565727,47.343334,8.305573,-406.0,-297.0,25.0,567365700.0,NoFix,12,0,0.0,0.0,0,0.0,0.0,0,73.26703,86.090034,2.2091153,981.27203,24.884567,132.2531,-406.0139,-418.24396
-0.29844415,0.14692634,11.203134,57.82073,36.423332,4.000573,-409.0,-300.0,34.0,568668100.0,NoFix,12,0,0.0,0.0,0,0.0,0.0,0,69.56124,84.79854,-1.5534817,981.27203,24.884567,137.86821,-412.39154,-400.74622
-0.4545534,0.49128497,11.336286,58.940727,26.378334,5.8205733,-404.0,-302.0,37.0,569970500.0,NoFix,12,0,0.0,0.0,0,0.0,0.0,0,68.91577,83.5605,-2.2995646,981.27203,24.884567,128.85002,-416.3395,-394.92584
-0.70708305,0.60147977,11.533718,66.18573,24.733334,7.6755733,-406.0,-309.0,39.0,571272800.0,NoFix,12,0,0.0,0.0,0,0.0,0.0,0,69.05928,82.21464,-2.2929306,981.27203,24.884567,132.67201,-430.22177,-390.7307
-0.85860085,0.7759548,11.423524,72.52073,25.538334,5.890573,-410.0,-314.0,51.0,572575200.0,NoFix,12,0,0.0,0.0,0,0.0,0.0,0,69.31039,80.75754,-2.143271,981.27203,24.884567,140.18234,-440.68854,-367.35403
-0.68412584,1.0514417,10.583288,72.415726,26.378334,-0.7244269,-414.0,-316.0,61.0,573877600.0,NoFix,12,0,0.0,0.0,0,0.0,0.0,0,69.34466,79.30071,-2.0856109,981.2721,24.885696,147.60262,-445.1729,-347.9675
-0.4821021,1.0514417,9.490523,68.88073,27.358334,-9.999427,-415.0,-315.0,68.0,575179970.0,NoFix,12,0,0.0,0.0,0,0.0,0.0,0,69.038086,77.90938,-2.1986108,981.2721,24.885696,149.4663,-443.5579,-334.52582
-0.757589,1.2718312,9.233403,66.04573,23.123333,-7.8994265,-416.0,-318.0,65.0,576482370.0,NoFix,12,0,0.0,0.0,0,0.0,0.0,0,69.01952,76.59527,-2.059894,981.2721,24.885696,151.3265,-449.33188,-340.15332
-0.97797847,2.0248287,9.779785,64.99573,15.1433325,5.2605734,-414.0,-328.0,75.0,577784770.0,NoFix,12,0,0.0,0.0,0,0.0,0.0,0,69.75256,75.339455,-1.4125912,981.2721,24.885696,148.02153,-469.3808,-320.45428
-0.8631923,2.612534,9.811926,71.43573,13.568333,10.930573,-414.0,-324.0,82.0,579087100.0,NoFix,12,0,0.0,0.0,0,0.0,0.0,0,70.75372,73.96832,-0.5942364,981.2721,24.885696,147.99576,-461.85263,-307.1615
-0.4086389,2.5941684,8.847721,70.31573,9.193333,15.970573,-414.0,-331.0,85.0,580389500.0,NoFix,12,0,0.0,0.0,0,0.0,0.0,0,71.98128,72.64487,0.3605494,981.2674,24.885696,148.1897,-475.73425,-301.0604
-0.004591448,2.3967361,7.8697424,59.29073,7.338333,6.0305734,-414.0,-329.0,90.0,581691900.0,NoFix,12,0,0.0,0.0,0,0.0,0.0,0,72.83008,71.535835,1.1202139,981.2674,24.885696,148.19145,-472.03976,-291.5258
-0.15610924,2.653857,7.67231,44.52073,0.5483327,1.1655731,-416.0,-329.0,96.0,582994300.0,NoFix,12,0,0.0,0.0,0,0.0,0.0,0,73.61295,70.72259,1.9167687,981.2674,24.885696,151.88782,-472.36508,-279.95343
-0.40404743,3.0716789,8.030443,39.34073,-9.776668,5.960573,-406.0,-333.0,97.0,584296640.0,NoFix,12,0,0.0,0.0,0,0.0,0.0,0,74.84665,70.04528,3.0860574,981.2674,24.885696,133.80266,-480.02908,-277.94003
-0.7116745,3.3379831,8.3885765,38.815727,-15.4816675,9.950573,-406.0,-335.0,97.0,585599040.0,NoFix,12,0,0.0,0.0,0,0.0,0.0,0,76.31671,69.39272,4.437803,981.2674,24.885696,133.8497,-483.9555,-277.84726
-0.9228811,3.3884888,8.507954,40.98573,-17.476667,15.305573,-402.0,-337.0,106.0,586901440.0,NoFix,12,0,0.0,0.0,0,0.0,0.0,0,77.89092,68.69845,5.798773,981.26794,24.89193,126.708984,-488.20526,-260.46423
-0.89992386,3.3242087,8.30593,39.30573,-17.406666,15.865573,-406.0,-336.0,114.0,588203800.0,NoFix,12,0,0.0,0.0,0,0.0,0.0,0,79.35746,68.02581,7.0505605,981.26794,24.89193,134.03914,-486.70724,-245.06781
-0.6887173,3.3150258,7.9477973,32.16573,-15.831668,13.135573,-400.0,-335.0,109.0,589506200.0,NoFix,12,0,0.0,0.0,0,0.0,0.0,0,80.580154,67.47108,8.094104,981.26794,24.89193,123.0534,-484.37094,-254.80011
-0.56474817,3.2553368,7.6677184,20.860727,-11.001668,6.3805733,-402.0,-336.0,110.0,590808600.0,NoFix,12,0,0.0,0.0,0,0.0,0.0,0,81.33822,67.10875,8.781096,981.26794,24.89193,126.724495,-486.42758,-252.80875
-0.66576,3.4022632,7.8513765,11.725729,-8.691668,7.3605733,-401.0,-343.0,114.0,592110900.0,NoFix,12,0,0.0,0.0,0,0.0,0.0,0,81.92333,66.90772,9.260087,981.26794,24.89193,125.10929,-500.3321,-244.79193
-0.6565771,3.7512133,8.475814,10.430729,-5.296667,10.160573,-395.0,-340.0,113.0,593413300.0,NoFix,12,0,0.0,0.0,0,0.0,0.0,0,82.39974,66.71939,9.557237,981.2582,24.89193,114.11555,-494.25494,-246.91512
-0.5601567,4.159852,8.87527,19.600729,1.2833327,10.405573,-395.0,-341.0,115.0,594715700.0,NoFix,12,0,0.0,0.0,0,0.0,0.0,0,82.652275,66.33597,9.605647,981.2582,24.89193,114.15859,-496.3109,-243.01778
-0.34895006,4.1368947,8.310521,29.750729,9.578333,7.290573,-395.0,-338.0,117.0,596018100.0,NoFix,12,0,0.0,0.0,0,0.0,0.0,0,82.56499,65.73652,9.346881,981.2582,24.89193,114.10754,-490.51404,-239.30597
-0.087237515,3.6226528,7.25908,26.355728,14.968332,-0.40942687,-400.0,-347.0,117.0,597320450.0,NoFix,12,0,0.0,0.0,0,0.0,0.0,0,82.12484,65.1909,8.860015,981.2582,24.89193,123.41377,-508.30048,-238.83972
-0.890741,4.086389,8.700794,-0.48927101,-0.46666718,-3.5594268,-405.0,-339.0,128.0,632484740.0,NoFix,12,0,0.0,0.0,0,0.0,0.0,0,78.55045,63.029385,5.1264405,981.2547,24.921707,132.42743,-493.2227,-217.98178
-1.0330758,4.187401,8.852312,-0.48927101,2.4733326,-4.5744267,-399.0,-342.0,126.0,633787140.0,NoFix,12,0,0.0,0.0,0,0.0,0.0,0,78.35679,63.035007,4.9982123,981.2547,24.921707,121.56509,-498.8784,-221.75214
-1.0881732,4.228724,8.866087,2.6957288,4.2583327,-2.929427,-406.0,-346.0,134.0,635089540.0,NoFix,12,0,0.0,0.0,0,0.0,0.0,0,78.15141,62.97304,4.8302875,981.2547,24.921707,134.46957,-507.26697,-206.09448
-1.0698075,4.1919923,8.68702,4.585729,3.9433327,0.045573115,-409.0,-342.0,126.0,636391900.0,NoFix,12,0,0.0,0.0,0,0.0,0.0,0,78.030754,62.87587,4.7002544,981.2547,24.921707,139.7541,-499.11362,-221.65454
-0.91828966,4.1139374,8.503363,3.325729,0.9333327,1.6205732,-403.0,-344.0,133.0,637694300.0,NoFix,12,0,0.0,0.0,0,0.0,0.0,0,78.049904,62.814957,4.6805553,981.2547,24.921707,128.95605,-503.2236,-208.14201
-0.79891205,4.035883,8.49418,-0.034271,-2.2516673,0.29057312,-402.0,-340.0,136.0,638996700.0,NoFix,12,0,0.0,0.0,0,0.0,0.0,0,78.14058,62.83227,4.7682247,981.2564,24.921707,127.072334,-495.4864,-202.56088
-0.89992386,4.132303,8.774258,-2.2392712,-3.6866672,-1.1794269,-404.0,-344.0,130.0,640299100.0,NoFix,12,0,0.0,0.0,0,0.0,0.0,0,78.232414,62.896572,4.891819,981.2564,24.921707,130.74567,-503.10797,-213.90868
-1.023893,4.2746387,8.990056,0.66572905,-1.3766673,-1.2844269,-401.0,-343.0,137.0,641601400.0,NoFix,12,0,0.0,0.0,0,0.0,0.0,0,78.25372,62.89578,4.935415,981.2564,24.921707,125.33376,-501.3989,-200.50603
-1.0835818,4.2333155,8.879861,3.5707293,1.6683327,-0.1294269,-400.0,-347.0,134.0,642903800.0,NoFix,12,0,0.0,0.0,0,0.0,0.0,0,78.203575,62.82844,4.8721128,981.2564,24.921707,123.57968,-509.089,-206.10666
-1.0560331,4.201175,8.668654,4.340729,2.3683326,2.320573,-400.0,-344.0,126.0,644206200.0,NoFix,12,0,0.0,0.0,0,0.0,0.0,0,78.18216,62.742428,4.7900977,981.2559,24.921707,123.43104,-502.82834,-221.64961
-0.9091068,4.141486,8.443674,4.305729,2.3333328,4.8405733,-405.0,-345.0,133.0,645508540.0,NoFix,12,0,0.0,0.0,0,0.0,0.0,0,78.219376,62.656948,4.7254343,981.2559,24.921707,132.61739,-505.2339,-208.07611
-0.52801657,4.1001635,8.475814,0.66572905,1.0033327,3.3355732,-407.0,-342.0,133.0,646810940.0,NoFix,12,0,0.0,0.0,0,0.0,0.0,0,78.275795,62.648937,4.713111,981.2559,24.921707,136.18462,-499.3913,-208.19574
-0.5050593,4.210358,8.673245,-0.314271,-1.0266674,-1.8444269,-408.0,-344.0,135.0,648113340.0,NoFix,12,0,0.0,0.0,0,0.0,0.0,0,78.30191,62.66678,4.7776284,981.2559,24.921707,138.07007,-503.434,-204.24228
-0.890741,4.2654557,8.833946,0.28072894,-6.7316675,1.2705731,-399.0,-352.0,131.0,649415740.0,NoFix,12,0,0.0,0.0,0,0.0,0.0,0,78.56935,62.693546,5.037011,981.2559,24.921707,121.84912,-518.74243,-211.66093
-0.92747253,4.306779,8.976281,2.1357288,-5.121667,1.8655732,-407.0,-350.0,132.0,650718100.0,NoFix,12,0,0.0,0.0,0,0.0,0.0,0,78.800354,62.679768,5.2570486,981.2568,24.931633,136.36305,-515.05054,-209.75015
-0.8264607,4.2746387,8.820172,4.6557293,1.3533328,-2.2294269,-403.0,-344.0,133.0,652020500.0,NoFix,12,0,0.0,0.0,0,0.0,0.0,0,78.7442,62.59428,5.2366414,981.2568,24.931633,128.95605,-503.2236,-208.14201
-0.79891205,4.1552606,8.484997,4.340729,2.4383328,-3.629427,-399.0,-341.0,135.0,653322900.0,NoFix,12,0,0.0,0.0,0,0.0,0.0,0,78.62145,62.50975,5.165383,981.2568,24.931633,121.629395,-497.33264,-204.46925
-0.83564365,4.1552606,8.374802,1.225729,0.96833277,-3.8044267,-406.0,-349.0,134.0,654625200.0,NoFix,12,0,0.0,0.0,0,0.0,0.0,0,78.523766,62.48717,5.133515,981.2568,24.931633,134.54015,-513.1566,-205.95534
-0.9228811,4.2057667,8.466631,0.455729,0.37333274,-2.7894268,-400.0,-341.0,132.0,655927600.0,NoFix,12,0,0.0,0.0,0,0.0,0.0,0,78.455986,62.480667,5.108547,981.2568,24.931633,123.41902,-497.21704,-210.23592
-0.9228811,4.24709,8.631924,-0.41927102,-1.1316674,-0.93442684,-406.0,-341.0,135.0,657230000.0,NoFix,12,0,0.0,0.0,0,0.0,0.0,0,78.47169,62.497486,5.1467967,981.2564,24.931633,134.3617,-497.4973,-204.40094
-0.9228811,4.2838216,8.714568,0.49072897,-1.3766673,-0.26942688,-401.0,-344.0,129.0,658532400.0,NoFix,12,0,0.0,0.0,0,0.0,0.0,0,78.51579,62.498363,5.193901,981.2564,24.931633,125.27921,-502.99103,-215.86343
-1.0147101,4.219541,8.627332,1.5057291,-0.92166734,0.32557315,-402.0,-343.0,130.0,659834750.0,NoFix,12,0,0.0,0.0,0,0.0,0.0,0,78.5545,62.478672,5.226141,981.2564,24.931633,127.08435,-501.09772,-213.97458
-1.0560331,4.178218,8.608966,0.38572896,1.6333327,-0.5844268,-401.0,-342.0,135.0,661137150.0,NoFix,12,0,0.0,0.0,0,0.0,0.0,0,78.47311,62.470943,5.141769,981.2564,24.931633,125.29072,-499.3429,-204.40337
-1.0101186,4.24709,8.677837,-0.06927103,1.3183327,-0.6544269,-401.0,-346.0,134.0,662439550.0,NoFix,12,0,0.0,0.0,0,0.0,0.0,0,78.40313,62.472145,5.0688353,981.2564,24.931633,125.37506,-507.14935,-206.14328
-0.9412469,4.3251443,8.728343,0.0007289648,-1.6216674,0.6055731,-406.0,-340.0,135.0,663741900.0,NoFix,12,0,0.0,0.0,0,0.0,0.0,0,78.468636,62.482143,5.130687,981.25745,24.942696,134.33818,-495.53412,-204.44733
-0.9045153,4.3113704,8.68702,0.77072895,-0.7116673,0.8505731,-400.0,-341.0,135.0,665044300.0,NoFix,12,0,0.0,0.0,0,0.0,0.0,0,78.51401,62.47427,5.154327,981.25745,24.942696,123.448296,-497.35617,-204.4595
-4.2333155,4.701643,8.163595,14.805729,161.16333,6.9055734,-433.0,-344.0,183.0,700208640.0,NoFix,12,0,0.0,0.0,0,0.0,0.0,0,48.036674,50.38119,-30.246439,981.2598,24.959137,184.01108,-506.2485,-111.57554
-3.820085,5.5005555,-6.653009,-23.169271,130.11833,2.1455731,-282.0,-346.0,326.0,769234940.0,NoFix,12,0,0.0,0.0,0,0.0,0.0,0,58.32678,-46.40745,-118.59554,981.2548,24.996277,-89.20044,-513.25555,162.38634
-3.3288002,5.4821897,-6.9055386,-24.219273,130.22333,0.36057314,-271.0,-347.0,317.0,770537340.0,NoFix,12,0,0.0,0.0,0,0.0,0.0,0,60.853207,-47.266506,-122.034256,981.2548,24.996277,-109.27267,-514.5425,144.9961
-2.7732346,5.4913726,-7.158068,-26.004272,113.03834,0.99057317,-278.0,-350.0,315.0,771839740.0,NoFix,12,0,0.0,0.0,0,0.0,0.0,0,63.206764,-47.848972,-125.18619,981.2548,24.996277,-96.48931,-520.5041,141.3526
-2.405919,5.574018,-7.2820373,-29.399273,91.793335,1.235573,-276.0,-351.0,310.0,773142100.0,NoFix,12,0,0.0,0.0,0,0.0,0.0,0,65.25674,-48.11776,-127.90015,981.2548,24.996277,-100.15238,-522.1883,131.7521
-2.1442065,5.670439,-7.03869,-31.569271,74.78333,0.81557316,-275.0,-353.0,309.0,774444500.0,NoFix,12,0,0.0,0.0,0,0.0,0.0,0,67.01084,-48.151424,-130.21812,981.2548,24.996277,-101.934,-526.0448,129.90964
-1.9697313,5.7806334,-6.6576004,-33.564274,72.05334,-1.5294268,-274.0,-357.0,302.0,775746900.0,NoFix,12,0,0.0,0.0,0,0.0,0.0,0,68.68322,-48.07413,-132.49048,981.2541,24.996277,-103.72711,-533.54944,116.60709
-2.1671636,5.858688,-6.6300516,-31.884272,79.57833,-2.159427,-270.0,-357.0,296.0,777049300.0,NoFix,12,0,0.0,0.0,0,0.0,0.0,0,70.45486,-48.027134,-134.9232,981.2541,24.996277,-111.06127,-533.17706,105.01521
-2.139615,5.900011,-6.8137093,-31.499271,78.24834,0.32557315,-268.0,-352.0,296.0,778351600.0,NoFix,12,0,0.0,0.0,0,0.0,0.0,0,72.2297,-47.93271,-137.29764,981.2541,24.996277,-114.8167,-523.31396,104.76378
-1.7309761,6.0102057,-6.790752,-31.114271,63.618332,1.1655731,-260.0,-356.0,284.0,779654000.0,NoFix,12,0,0.0,0.0,0,0.0,0.0,0,73.72439,-47.71896,-139.26953,981.2541,24.996277,-129.39093,-530.42206,81.76555
-1.5289522,6.1066265,-6.5198565,-28.349272,34.148335,-1.1444268,-263.0,-357.0,287.0,780956400.0,NoFix,12,0,0.0,0.0,0,0.0,0.0,0,74.55642,-47.369473,-140.40916,981.2541,24.996277,-123.881424,-532.5949,87.61763
-1.6299641,6.281101,-5.867871,-22.924273,4.7133327,-1.8444269,-265.0,-359.0,283.0,782258800.0,NoFix,12,0,0.0,0.0,0,0.0,0.0,0,74.74398,-46.944275,-140.70326,981.2553,25.009323,-120.23561,-536.3829,80.028015
-1.8136221,6.414253,-5.6061583,-9.554271,-1.1316674,1.5855732,-267.0,-357.0,282.0,783561200.0,NoFix,12,0,0.0,0.0,0,0.0,0.0,0,74.79946,-46.72487,-140.73505,981.2553,25.009323,-116.65462,-532.45715,78.0293
-1.7217932,6.3132415,-6.464759,0.980729,-4.9816675,4.7355733,-258.0,-358.0,282.0,784863550.0,NoFix,12,0,0.0,0.0,0,0.0,0.0,0,74.787254,-46.7063,-140.57845,981.2553,25.009323,-133.0012,-534.2086,77.987854
-1.4600805,6.0790777,-7.663127,-3.4292712,-22.551666,5.750573,-261.0,-355.0,280.0,786165950.0,NoFix,12,0,0.0,0.0,0,0.0,0.0,0,74.48747,-46.553562,-139.99782,981.2553,25.009323,-127.63459,-528.29675,74.02702
-1.3361114,5.968883,-8.159003,-20.999271,-46.001667,3.7555733,-264.0,-352.0,285.0,787468350.0,NoFix,12,0,0.0,0.0,0,0.0,0.0,0,73.81036,-45.969704,-138.93901,981.2553,25.009323,-122.19965,-522.70966,83.544525
-1.4049832,6.111218,-7.621804,-36.08427,-67.63167,-1.5644269,-263.0,-356.0,281.0,788770750.0,NoFix,12,0,0.0,0.0,0,0.0,0.0,0,72.749855,-44.971527,-137.46948,981.2557,25.009323,-123.9635,-530.35345,76.0184
-1.6161897,6.3545647,-6.5474052,-40.17927,-92.55167,-4.959427,-268.0,-354.0,278.0,790073100.0,NoFix,12,0,0.0,0.0,0,0.0,0.0,0,71.272804,-43.704643,-135.47055,981.2557,25.009323,-114.94533,-526.40546,70.19801
-2.0431945,6.59332,-5.67503,-38.044273,-118.80167,-4.329427,-269.0,-359.0,277.0,791375500.0,NoFix,12,0,0.0,0.0,0,0.0,0.0,0,69.45078,-42.243164,-132.90283,981.2557,25.009323,-113.018555,-536.19867,68.51421
-2.4288762,6.685149,-5.4913726,-30.344273,-134.44667,0.46557313,-270.0,-364.0,276.0,792677900.0,NoFix,12,0,0.0,0.0,0,0.0,0.0,0,67.55319,-40.746674,-130.01468,981.2557,25.009323,-111.09179,-545.9919,66.830414
-2.4288762,6.5979114,-5.5281034,-28.419271,-140.15167,-1.5644269,-271.0,-359.0,275.0,793980300.0,NoFix,12,0,0.0,0.0,0,0.0,0.0,0,65.6732,-39.18191,-127.112175,981.2557,25.009323,-109.40027,-536.15295,64.682785
-2.148798,6.450985,-5.188337,-29.294271,-167.13667,-10.419427,-278.0,-356.0,280.0,795282600.0,NoFix,12,0,0.0,0.0,0,0.0,0.0,0,63.443302,-37.30844,-123.78451,981.2562,25.015556,-96.689735,-530.66,74.23932
-2.34623,6.496899,-4.1368947,-28.874271,-213.23167,-18.224426,-287.0,-357.0,279.0,796585000.0,NoFix,12,0,0.0,0.0,0,0.0,0.0,0,60.721123,-34.89514,-119.702484,981.2562,25.015556,-80.30586,-532.78845,72.44807
-3.0946362,6.6300516,-3.287477,-14.034271,-231.39668,-20.009426,-296.0,-364.0,277.0,797887400.0,NoFix,12,0,0.0,0.0,0,0.0,0.0,0,57.91392,-32.420296,-115.33558,981.2562,25.015556,-63.79059,-546.6499,69.009636
-3.737439,6.5106735,-3.3104343,-1.924271,-236.54167,-25.049427,-298.0,-359.0,281.0,799189800.0,NoFix,12,0,0.0,0.0,0,0.0,0.0,0,55.20409,-29.867643,-110.99236,981.2562,25.015556,-60.231373,-537.0664,76.49913
-4.5271683,6.30865,-3.544598,6.230729,-244.66168,-26.134426,-305.0,-364.0,282.0,800492160.0,NoFix,12,0,0.0,0.0,0,0.0,0.0,0,52.627777,-27.198702,-106.64547,981.2562,25.015556,-47.371677,-547.09357,78.72484
-5.518921,6.1892724,-3.787945,7.4557295,-227.65167,-23.719427,-305.0,-363.0,285.0,801794560.0,NoFix,12,0,0.0,0.0,0,0.0,0.0,0,50.469044,-24.608936,-102.77486,981.2533,25.015556,-47.365925,-545.2694,84.45488
-6.386705,6.2627354,-3.9899685,3.535729,-194.61168,-19.974426,-312.0,-365.0,285.0,803096960.0,NoFix,12,0,0.0,0.0,0,0.0,0.0,0,48.81874,-22.26708,-99.64967,981.2533,25.015556,-34.586563,-549.36053,84.61596
-6.8733983,6.3453817,-4.228724,-7.349271,-177.60167,-8.704427,-317.0,-364.0,285.0,804399360.0,NoFix,12,0,0.0,0.0,0,0.0,0.0,0,47.686478,-19.932663,-97.04595,981.2533,25.015556,-25.51558,-547.51495,84.61838
-6.781569,6.2627354,-4.045066,-16.204271,-193.42168,7.9905734,-324.0,-360.0,284.0,805701700.0,NoFix,12,0,0.0,0.0,0,0.0,0.0,0,46.974148,-17.242188,-94.415665,981.2533,25.015556,-12.887122,-539.78046,82.57568
-6.542814,6.299467,-2.9155695,-16.274271,-200.07167,15.655573,-325.0,-365.0,282.0,807004100.0,NoFix,12,0,0.0,0.0,0,0.0,0.0,0,46.53045,-14.421175,-91.7642,981.2533,25.015556,-10.970118,-549.5273,78.966415
-6.432619,6.5703626,-1.7493418,-8.924271,-171.79167,19.120573,-326.0,-368.0,282.0,808306500.0,NoFix,12,0,0.0,0.0,0,0.0,0.0,0,46.360455,-12.033157,-89.462654,981.2534,25.016693,-9.080641,-555.4404,79.115326
-6.290284,6.694332,-1.5427266,-6.894271,-135.74167,14.605574,-322.0,-362.0,279.0,809608900.0,NoFix,12,0,0.0,0.0,0,0.0,0.0,0,46.292755,-10.147037,-87.66524,981.2534,25.016693,-16.526672,-543.42786,73.02156
-6.0653033,6.565771,-1.8273964,-13.3342705,-136.02167,7.8855734,-334.0,-366.0,278.0,810911300.0,NoFix,12,0,0.0,0.0,0,0.0,0.0,0,46.175545,-8.188483,-85.96712,981.2534,25.016693,5.3844857,-551.5166,71.398735
-5.720945,6.524448,-1.4692634,-22.819271,-165.42168,3.6505733,-332.0,-364.0,276.0,812213600.0,NoFix,12,0,0.0,0.0,0,0.0,0.0,0,46.020588,-5.7098947,-84.004486,981.2534,25.016693,1.6801144,-547.45044,67.4355
-5.4730067,6.616277,-0.5463823,-23.659271,-194.01668,-0.19942689,-333.0,-365.0,272.0,813516000.0,NoFix,12,0,0.0,0.0,0,0.0,0.0,0,45.867985,-2.8176494,-81.68055,981.2534,25.016693,3.483503,-549.2516,59.78975
-5.495964,6.6759663,0.22957242,-25.164272,-200.45668,-3.734427,-336.0,-367.0,272.0,814818400.0,NoFix,12,0,0.0,0.0,0,0.0,0.0,0,45.76908,0.19823126,-79.295715,981.2542,25.016693,8.987257,-553.24854,59.911793
-5.9321513,6.694332,0.8126863,-25.654272,-189.60667,-10.664427,-344.0,-363.0,270.0,816120800.0,NoFix,12,0,0.0,0.0,0,0.0,0.0,0,45.64616,3.085434,-77.06589,981.2542,25.016693,23.424854,-545.49115,55.95339
-6.5106735,6.671375,1.1478621,-23.449272,-177.84668,-16.544426,-339.0,-360.0,267.0,817423170.0,NoFix,12,0,0.0,0.0,0,0.0,0.0,0,45.495415,5.7859573,-74.969666,981.2542,25.016693,14.2304945,-539.34485,49.98902
-7.011142,6.5703626,1.1800022,-21.209272,-165.73668,-16.964426,-342.0,-363.0,265.0,818725570.0,NoFix,12,0,0.0,0.0,0,0.0,0.0,0,45.401886,8.284137,-73.005455,981.2542,25.016693,19.738253,-545.2122,46.3065
-7.2039824,6.5198565,1.5014036,-22.959272,-168.78168,-12.169427,-344.0,-366.0,259.0,820027970.0,NoFix,12,0,0.0,0.0,0,0.0,0.0,0,45.485256,10.842644,-71.01785,981.2542,25.016693,23.388075,-550.8706,34.912323
-6.94227,6.6208687,2.2498097,-20.159271,-176.86667,-6.569427,-354.0,-363.0,255.0,821330370.0,NoFix,12,0,0.0,0.0,0,0.0,0.0,0,45.809246,13.473933,-68.84945,981.25476,25.021233,41.467484,-545.03064,27.168873
-6.473942,6.7035146,2.9155695,-13.929271,-176.58667,-0.23442686,-354.0,-366.0,249.0,822632700.0,NoFix,12,0,0.0,0.0,0,0.0,0.0,0,46.39235,16.008295,-66.55834,981.25476,25.021233,41.4795,-550.642,15.755178
-6.230595,6.62546,3.36094,-9.8342705,-158.07167,0.8505731,-349.0,-365.0,254.0,823935200.0,NoFix,12,0,0.0,0.0,0,0.0,0.0,0,47.042953,18.223547,-64.41578,981.25476,25.021233,32.41026,-548.7931,25.287367
-6.3912964,6.464759,3.5032752,-8.154271,-143.72168,2.425573,-354.0,-366.0,244.0,825237500.0,NoFix,12,0,0.0,0.0,0,0.0,0.0,0,47.741447,20.198544,-62.421883,981.25476,25.021233,41.430702,-550.4101,6.1278086
-6.3224244,6.487716,3.7925365,-4.024271,-143.40668,7.535573,-354.0,-365.0,246.0,826539970.0,NoFix,12,0,0.0,0.0,0,0.0,0.0,0,48.63688,22.082949,-60.31776,981.25476,25.021233,41.426693,-548.5397,9.932373
-5.831139,6.7035146,4.3205533,6.475729,-148.20168,10.405573,-358.0,-366.0,245.0,827842300.0,NoFix,12,0,0.0,0.0,0,0.0,0.0,0,49.77131,23.84823,-57.92511,981.25507,25.021233,48.71607,-550.5506,8.0923195
-5.2939396,6.694332,4.3618755,15.925729,-156.56668,9.075573,-352.0,-367.0,246.0,829144640.0,NoFix,12,0,0.0,0.0,0,0.0,0.0,0,51.094006,25.52538,-55.19898,981.25507,25.021233,37.835938,-552.419,10.005621
-4.903667,6.441802,4.1139374,11.620729,-170.28668,7.7805734,-359.0,-365.0,245.0,830447040.0,NoFix,12,0,0.0,0.0,0,0.0,0.0,0,52.580612,27.355972,-52.209377,981.25507,25.021233,50.511444,-548.6109,8.0556965
-4.8072467,6.3545647,4.4123816,-1.819271,-178.65167,5.890573,-355.0,-369.0,237.0,831749440.0,NoFix,12,0,0.0,0.0,0,0.0,0.0,0,54.15146,29.41501,-49.156963,981.25507,25.021233,43.251858,-555.99854,-7.2016
-4.8302035,6.414253,4.926624,-7.5942707,-180.05168,6.2405734,-351.0,-367.0,237.0,833051840.0,NoFix,12,0,0.0,0.0,0,0.0,0.0,0,55.859188,31.503979,-46.02794,981.2561,25.03144,35.929203,-551.978,-7.3334045
-4.59604,6.6300516,5.4592323,-2.4492712,-176.72667,9.180573,-352.0,-368.0,234.0,834354200.0,NoFix,12,0,0.0,0.0,0,0.0,0.0,0,57.796677,33.39213,-42.751385,981.2561,25.03144,37.74235,-553.8256,-13.053683
-4.1231203,6.94227,6.0882607,9.485729,-166.43668,11.455573,-352.0,-366.0,242.0,835656600.0,NoFix,12,0,0.0,0.0,0,0.0,0.0,0,59.916344,34.891994,-39.375298,981.2561,25.03144,37.773376,-550.27026,2.2573414
-3.4573607,6.992776,6.4372106,18.725729,-157.65167,5.015573,-352.0,-366.0,239.0,836959000.0,NoFix,12,0,0.0,0.0,0,0.0,0.0,0,62.016743,36.05986,-35.94807,981.2561,25.03144,37.7441,-550.1311,-3.5190792
-3.2323794,6.772386,6.175498,22.435728,-160.27667,-3.839427,-350.0,-364.0,241.0,838261400.0,NoFix,12,0,0.0,0.0,0,0.0,0.0,0,64.10964,37.07777,-32.3332,981.2561,25.03144,34.07877,-546.2504,0.21958256
-3.4757264,6.6116858,5.7576766,13.615729,-164.30168,-2.7194269,-359.0,-369.0,238.0,839563800.0,NoFix,12,0,0.0,0.0,0,0.0,0.0,0,66.30948,38.154144,-28.62964,981.2561,25.03144,50.537224,-556.13904,-5.237088
-3.2691112,6.7953434,6.124992,4.340729,-161.71167,3.7905731,-356.0,-364.0,236.0,840866100.0,NoFix,12,0,0.0,0.0,0,0.0,0.0,0,68.664215,39.2589,-24.96894,981.2561,25.03144,44.94338,-546.15967,-9.349231
-2.0615602,7.167251,7.2177567,8.015729,-163.21667,8.970573,-350.0,-367.0,236.0,842168500.0,NoFix,12,0,0.0,0.0,0,0.0,0.0,0,71.32204,40.203903,-21.111803,981.2561,25.03144,34.100544,-551.9081,-9.268638
-0.82186925,7.0800133,7.4932437,27.86073,-177.88167,1.6905732,-351.0,-364.0,241.0,843470900.0,NoFix,12,0,0.0,0.0,0,0.0,0.0,0,74.26631,40.717686,-16.654541,981.2561,25.03144,35.89767,-546.274,0.2293415
-0.9412469,6.4372106,6.4004793,38.115726,-218.51668,-5.204427,-353.0,-367.0,242.0,844773300.0,NoFix,12,0,0.0,0.0,0,0.0,0.0,0,77.83864,41.03896,-11.07875,981.2561,25.03144,39.615807,-552.25696,2.3134832
-1.9513655,6.258144,5.918377,19.005728,-260.23666,10.335573,-354.0,-368.0,244.0,846075650.0,NoFix,12,0,0.0,0.0,0,0.0,0.0,0,82.32935,41.543022,-4.5429263,981.2561,25.03144,41.477753,-554.33655,6.2205753
-2.231444,7.089196,7.029507,0.77072895,-260.20166,31.510572,-354.0,-369.0,237.0,847378050.0,NoFix,12,0,0.0,0.0,0,0.0,0.0,0,87.28104,41.988617,2.0275304,981.25696,25.03144,41.432957,-555.97504,-7.211359
-0.9228811,7.95698,8.287564,11.410729,-212.14667,30.670574,-353.0,-364.0,238.0,848680450.0,NoFix,12,0,0.0,0.0,0,0.0,0.0,0,91.454414,41.841175,7.4300785,981.25696,25.03144,39.50619,-546.1818,-5.527561
0.38568166,7.67231,7.76873,38.990726,-168.22168,0.010573149,-347.0,-371.0,236.0,849982850.0,NoFix,12,0,0.0,0.0,0,0.0,0.0,0,94.23761,40.96475,11.634209,981.25696,25.03144,28.737934,-559.69037,-9.112384
0.4729192,6.6070943,5.5877924,45.850727,-158.87668,-19.554426,-355.0,-365.0,237.0,851285250.0,NoFix,12,0,0.0,0.0,0,0.0,0.0,0,96.34836,39.81706,15.480633,981.25696,25.03144,43.15776,-548.1457,-7.3871326
0.5463823,6.2351866,4.5593085,25.340729,-196.50168,0.64057314,-349.0,-370.0,240.0,852587600.0,NoFix,12,0,0.0,0.0,0,0.0,0.0,0,99.31989,38.812645,20.1638,981.25775,25.039948,32.39125,-557.9598,-1.4373522
1.1616364,7.0846047,6.1204004,16.730728,-235.63167,28.920574,-352.0,-364.0,242.0,853890000.0,NoFix,12,0,0.0,0.0,0,0.0,0.0,0,103.26932,37.636143,25.671333,981.25775,25.039948,37.72633,-546.3439,2.1645746
1.5519096,8.071766,7.60803,38.43073,-239.23668,27.310574,-352.0,-366.0,243.0,855192400.0,NoFix,12,0,0.0,0.0,0,0.0,0.0,0,106.898834,35.781517,30.90432,981.25775,25.039948,37.783134,-550.31665,4.1828156
1.4600805,8.039626,6.7448373,53.585728,-208.47168,6.4505734,-348.0,-357.0,248.0,856494800.0,NoFix,12,0,0.0,0.0,0,0.0,0.0,0,109.36693,33.608505,35.07655,981.25775,25.039948,30.344608,-532.7856,13.353699
1.6575129,7.5391583,5.1332393,48.545727,-161.71167,-4.049427,-349.0,-366.0,252.0,857797100.0,NoFix,12,0,0.0,0.0,0,0.0,0.0,0,110.89173,31.690922,38.105095,981.25775,25.039948,32.41427,-550.6635,21.482803
2.66304,7.300403,4.582266,51.31073,-123.17667,-2.0894268,-347.0,-365.0,252.0,859099500.0,NoFix,12,0,0.0,0.0,0,0.0,0.0,0,111.931274,29.92652,40.22576,981.2543,25.039948,28.752937,-548.65326,21.4169
3.287477,7.075422,4.4123816,60.41073,-130.24667,4.385573,-352.0,-366.0,266.0,860401900.0,NoFix,12,0,0.0,0.0,0,0.0,0.0,0,113.04938,27.921753,42.342102,981.2543,25.039948,38.007603,-551.3835,48.468716
2.8696554,7.0340986,4.0817976,53.02573,-165.84167,28.080574,-347.0,-368.0,264.0,861704300.0,NoFix,12,0,0.0,0.0,0,0.0,0.0,0,114.82329,25.729506,45.10618,981.2543,25.039948,28.940624,-555.09955,44.661736
2.8329237,7.497835,4.104755,40.77573,-186.35167,53.59557,-342.0,-367.0,270.0,863006700.0,NoFix,12,0,0.0,0.0,0,0.0,0.0,0,117.11588,23.496128,48.215313,981.2543,25.039948,19.88115,-553.29694,56.1194
3.8292677,7.9523883,4.2746387,42.140728,-179.73668,58.985573,-339.0,-364.0,266.0,864309060.0,NoFix,12,0,0.0,0.0,0,0.0,0.0,0,119.3049,21.195023,51.05715,981.2543,25.039948,14.314833,-547.1513,48.249077
4.710826,7.653944,3.6915245,57.015728,-179.52667,50.62057,-344.0,-360.0,277.0,865611460.0,NoFix,12,0,0.0,0.0,0,0.0,0.0,0,121.143425,18.55451,53.617004,981.2543,25.040512,23.422596,-539.9263,69.29256
4.5914483,7.089196,2.6492655,57.225727,-186.21167,49.360573,-342.0,-367.0,280.0,866913860.0,NoFix,12,0,0.0,0.0,0,0.0,0.0,0,122.83582,15.757944,56.162857,981.2543,25.040512,19.978745,-553.7608,75.37414
4.426156,7.1213365,2.139615,31.920727,-182.71167,50.06057,-335.0,-358.0,278.0,868216260.0,NoFix,12,0,0.0,0.0,0,0.0,0.0,0,124.43999,13.327417,58.80842,981.2543,25.040512,7.0151925,-535.8345,71.03743
5.454641,7.268263,2.1671636,14.035729,-171.02167,47.33057,-331.0,-361.0,276.0,869518600.0,NoFix,12,0,0.0,0.0,0,0.0,0.0,0,125.89445,11.243275,61.386814,981.2543,25.040512,-0.20936003,-541.53723,67.28659
6.3545647,7.2958117,2.6584485,29.225729,-187.12167,32.24557,-335.0,-357.0,278.0,870821000.0,NoFix,12,0,0.0,0.0,0,0.0,0.0,0,126.97842,8.71441,63.979027,981.2543,25.040512,6.9916677,-533.8713,70.99104
2.0294201,6.653009,-6.3637476,36.330727,-119.291664,-73.59443,-455.0,-308.0,358.0,905985500.0,NoFix,12,0,0.0,0.0,0,0.0,0.0,0,111.16281,-40.671978,93.97854,981.25104,25.05951,224.88794,-444.2075,223.9273
1.7355675,6.602503,-6.0882607,-0.38427103,-65.916664,-67.01443,-467.0,-299.0,357.0,907287800.0,NoFix,12,0,0.0,0.0,0,0.0,0.0,0,108.838646,-41.098873,95.56516,981.25104,25.05951,246.49329,-426.77454,221.7015
1.5243609,6.992776,-6.0882607,-26.424273,-29.446667,-69.56943,-467.0,-299.0,355.0,908590200.0,NoFix,12,0,0.0,0.0,0,0.0,0.0,0,106.88913,-40.789726,96.50689,981.25104,25.05951,246.47377,-426.68176,217.85057
1.0698075,7.001959,-6.051529,-40.704273,-9.601667,-56.23443,-473.0,-298.0,345.0,909892600.0,NoFix,12,0,0.0,0.0,0,0.0,0.0,0,105.4452,-40.09878,97.06815,981.25104,25.05951,257.26605,-424.39587,198.608
0.88155806,6.349973,-5.8862367,-40.35427,-9.916668,-24.209427,-475.0,-299.0,349.0,911195000.0,NoFix,12,0,0.0,0.0,0,0.0,0.0,0,104.62947,-39.423653,97.601814,981.25104,25.05951,260.96643,-426.59164,206.37578
0.6979001,5.9826574,-5.9137855,-25.234272,-20.241667,13.870573,-471.0,-303.0,341.0,912497400.0,NoFix,12,0,0.0,0.0,0,0.0,0.0,0,104.44939,-39.086773,98.28942,981.25104,25.05951,253.70685,-433.9793,191.11848
0.716266,6.0790777,-5.5281034,-15.504271,-18.596666,46.42057,-474.0,-305.0,345.0,913799740.0,NoFix,12,0,0.0,0.0,0,0.0,0.0,0,104.9512,-38.91036,98.86705,981.25104,25.05951,259.2496,-438.16187,198.94243
1.3774346,6.414253,-4.7980638,1.260729,-15.586667,60.595573,-469.0,-308.0,345.0,915102140.0,NoFix,12,0,0.0,0.0,0,0.0,0.0,0,105.857834,-38.996574,99.251945,981.25104,25.05951,250.2257,-443.93387,199.03279
2.3737788,6.832075,-4.9541726,31.150728,-28.431667,48.27557,-463.0,-308.0,339.0,916404540.0,NoFix,12,0,0.0,0.0,0,0.0,0.0,0,106.50347,-39.68812,99.719475,981.25104,25.05951,239.25371,-443.51443,187.42139
3.0165815,6.8642154,-6.0377545,50.365726,-50.02667,28.710573,-463.0,-306.0,343.0,917706940.0,NoFix,12,0,0.0,0.0,0,0.0,0.0,0,106.5495,-40.86975,100.54485,981.25104,25.05951,239.24571,-439.77353,195.03052
2.59876,6.643826,-6.584137,54.390728,-77.85167,20.800573,-472.0,-303.0,341.0,919009300.0,NoFix,12,0,0.0,0.0,0,0.0,0.0,0,105.97047,-42.28392,102.04853,981.25024,25.05951,255.52574,-434.00284,191.12825
1.0514417,6.395888,-6.5290394,62.05573,-108.09167,26.470573,-467.0,-305.0,344.0,920311700.0,NoFix,12,0,0.0,0.0,0,0.0,0.0,0,104.87922,-43.98055,104.36942,981.25024,25.05951,246.50755,-437.9508,196.94864
-0.93665546,6.556588,-7.98912,68.28573,-167.73167,40.610573,-469.0,-305.0,343.0,921614100.0,NoFix,12,0,0.0,0.0,0,0.0,0.0,0,102.87013,-46.004578,108.319244,981.25024,25.05951,250.1356,-437.95145,195.0427
1.0101186,6.7356544,-7.1488853,55.335728,-255.02168,39.94557,-478.0,-308.0,335.0,922916500.0,NoFix,12,0,0.0,0.0,0,0.0,0.0,0,98.724724,-47.944443,115.035034,981.25024,25.05951,266.49823,-443.68176,179.86588
3.2140138,6.203047,-5.4913726,38.745728,-168.29167,5.225573,-483.0,-303.0,326.0,924218940.0,NoFix,12,0,0.0,0.0,0,0.0,0.0,0,95.33988,-49.066246,119.70267,981.25024,25.05951,275.38727,-433.56586,162.3535
1.3361114,5.684213,-6.248961,38.780727,-97.17167,-9.054427,-488.0,-300.0,322.0,925521300.0,NoFix,12,0,0.0,0.0,0,0.0,0.0,0,93.12997,-49.925095,122.42573,981.25085,25.065468,284.37216,-427.60834,154.56125
-0.10101186,5.624524,-6.441802,49.00073,-77.78167,-8.004427,-490.0,-299.0,326.0,926823700.0,NoFix,12,0,0.0,0.0,0,0.0,0.0,0,91.215935,-50.90347,124.71254,981.25085,25.065468,288.02548,-425.8777,162.23628
-0.358133,5.8357306,-6.7264714,52.32573,-65.776665,-2.824427,-491.0,-301.0,325.0,928126340.0,NoFix,12,0,0.0,0.0,0,0.0,0.0,0,89.581985,-51.89387,126.739655,981.25085,25.065468,289.88168,-429.78125,160.41333
-0.1698836,5.8632793,-6.9514527,49.56073,-65.53167,-4.434427,-494.0,-303.0,327.0,929428400.0,NoFix,12,0,0.0,0.0,0,0.0,0.0,0,87.8558,-52.793476,128.83081,981.25085,25.065468,295.40494,-433.87103,164.38632
0.045914482,5.6474814,-7.1213365,52.53573,-71.58667,-10.279427,-493.0,-299.0,326.0,930730800.0,NoFix,12,0,0.0,0.0,0,0.0,0.0,0,85.78961,-53.706047,131.19566,981.25085,25.065468,293.48218,-425.94827,162.26556
-0.1607007,5.284757,-7.199391,67.41073,-92.30666,-11.6094265,-503.0,-289.0,326.0,932033200.0,NoFix,12,0,0.0,0.0,0,0.0,0.0,0,82.9925,-54.807243,134.38423,981.24866,25.065468,311.43594,-406.5514,161.89932
-0.93665546,5.1148734,-7.5116096,89.915726,-118.80167,-10.874427,-506.0,-289.0,328.0,933335550.0,NoFix,12,0,0.0,0.0,0,0.0,0.0,0,79.150314,-56.144936,138.80005,981.24866,25.065468,316.91217,-406.71475,165.77954
-1.2029595,5.2663913,-8.246241,97.68573,-152.29668,-11.189426,-515.0,-285.0,327.0,934637950.0,NoFix,12,0,0.0,0.0,0,0.0,0.0,0,73.99636,-57.279785,144.71172,981.24866,25.065468,333.17844,-399.02722,163.75636
-1.2442825,4.9312153,-8.044218,94.88573,-172.10667,-17.874428,-515.0,-285.0,321.0,935940350.0,NoFix,12,0,0.0,0.0,0,0.0,0.0,0,67.884415,-57.916954,151.56642,981.24866,25.065468,333.11987,-398.74893,152.20352
-1.8595365,4.3481016,-7.428963,96.110725,-151.38667,-16.334427,-524.0,-273.0,311.0,937242750.0,NoFix,12,0,0.0,0.0,0,0.0,0.0,0,62.14752,-58.353382,157.95668,981.24866,25.065468,349.11008,-374.9383,132.48003
-2.787009,3.7052987,-7.3968234,96.040726,-122.371666,-3.944427,-533.0,-274.0,319.0,938545150.0,NoFix,12,0,0.0,0.0,0,0.0,0.0,0,57.24497,-58.752647,163.59795,981.25,25.080215,365.58182,-377.4843,148.01805
-3.3288002,3.4895008,-7.488652,95.02573,-103.191666,20.695574,-529.0,-274.0,316.0,939847500.0,NoFix,12,0,0.0,0.0,0,0.0,0.0,0,53.203033,-59.109043,168.76479,981.25,25.080215,358.27692,-377.25104,142.20258
-3.1221848,3.8063107,-7.8376026,98.70073,-103.121666,22.165573,-526.0,-279.0,319.0,941149900.0,NoFix,12,0,0.0,0.0,0,0.0,0.0,0,49.084175,-59.331787,174.06471,981.25,25.080215,352.96716,-387.13568,148.18164
-3.64561,3.2094223,-7.5116096,106.22573,-104.31167,12.225574,-538.0,-267.0,318.0,942452300.0,NoFix,12,0,0.0,0.0,0,0.0,0.0,0,44.50692,-59.433037,179.63506,981.25,25.080215,374.5019,-363.81305,145.81668
-3.64561,2.9568927,-7.585073,114.06573,-98.32667,16.635572,-531.0,-269.0,315.0,943754700.0,NoFix,12,0,0.0,0.0,0,0.0,0.0,0,39.95403,-59.49877,-174.71202,981.25,25.080215,361.78738,-367.43564,140.06471
-3.4344034,3.0257645,-7.7365904,102.375725,-98.151665,2.110573,-537.0,-262.0,315.0,945057100.0,NoFix,12,0,0.0,0.0,0,0.0,0.0,0,35.49127,-59.21278,-169.47699,981.2517,25.080215,372.5361,-353.83432,139.79858
-4.2608643,2.7686431,-7.456512,112.665726,-87.23167,2.0755732,-542.0,-264.0,315.0,946359400.0,NoFix,12,0,0.0,0.0,0,0.0,0.0,0,31.019302,-58.98019,-164.2225,981.2517,25.080215,381.67767,-357.87836,139.94014
-4.940398,2.6492655,-7.3600917,103.74073,-73.721664,-1.004427,-540.0,-259.0,320.0,947661800.0,NoFix,12,0,0.0,0.0,0,0.0,0.0,0,27.02181,-58.67548,-159.57393,981.2517,25.080215,377.97107,-348.2472,149.31607
-5.2801657,2.1120663,-6.8733983,95.41073,-55.451668,-4.6794267,-546.0,-260.0,322.0,948964200.0,NoFix,12,0,0.0,0.0,0,0.0,0.0,0,23.491123,-58.449127,-155.54617,981.2517,25.080215,388.92746,-350.44434,153.27197
-5.0965075,1.68047,-7.2636714,97.65073,-40.296665,-1.7394269,-543.0,-255.0,322.0,950266600.0,NoFix,12,0,0.0,0.0,0,0.0,0.0,0,20.169065,-58.400387,-151.68959,981.2517,25.080215,383.35315,-340.55768,153.01077
-5.169971,1.3361114,-7.497835,97.89573,-37.77667,-2.4044268,-544.0,-250.0,333.0,951569000.0,NoFix,12,0,0.0,0.0,0,0.0,0.0,0,16.867247,-58.288784,-147.86732,981.25226,25.086739,385.1618,-331.27536,173.96884
-5.776042,0.8769666,-6.94227,106.610725,-32.52667,1.5855732,-547.0,-255.0,331.0,952871360.0,NoFix,12,0,0.0,0.0,0,0.0,0.0,0,13.433391,-58.17506,-143.79837,981.25226,25.086739,390.71658,-341.0692,170.37907
-6.230595,0.7346317,-6.574954,117.040726,-15.096667,10.125573,-545.0,-243.0,340.0,954173760.0,NoFix,12,0,0.0,0.0,0,0.0,0.0,0,10.013406,-58.346,-139.54503,981.25226,25.086739,386.88434,-317.8811,187.13223
-6.184681,0.8310522,-6.473942,109.93573,13.6033325,9.530573,-549.0,-247.0,349.0,955476160.0,NoFix,12,0,0.0,0.0,0,0.0,0.0,0,6.8700743,-58.90872,-135.64072,981.25226,25.086739,394.3419,-326.24548,204.68607
-5.495964,0.80350345,-6.809118,93.73073,44.648335,-1.2844269,-542.0,-234.0,363.0,956778560.0,NoFix,12,0,0.0,0.0,0,0.0,0.0,0,4.004788,-59.874905,-132.3231,981.25226,25.086739,381.44037,-301.20844,230.97139
-4.435339,-0.022957241,-7.814645,82.60073,59.698334,-15.179427,-543.0,-232.0,368.0,958080960.0,NoFix,12,0,0.0,0.0,0,0.0,0.0,0,1.0189588,-61.078712,-129.22003,981.2484,25.086739,383.26105,-297.53745,240.51576
-3.7007074,-0.92747253,-8.967098,95.305725,39.083332,-16.299427,-542.0,-230.0,374.0,959383360.0,NoFix,12,0,0.0,0.0,0,0.0,0.0,0,-2.701008,-61.830414,-125.34552,981.2484,25.086739,381.45364,-293.8658,251.96608
-3.5583725,-0.74381465,-9.361963,107.59073,9.053332,-16.089426,-542.0,-217.0,382.0,960685700.0,NoFix,12,0,0.0,0.0,0,0.0,0.0,0,-6.8719864,-61.871655,-120.9686,981.2484,25.086739,381.2259,-268.71512,266.76688
-4.118529,-0.36731586,-8.324296,104.860725,-0.3616674,-23.894426,-544.0,-217.0,386.0,961988100.0,NoFix,12,0,0.0,0.0,0,0.0,0.0,0,-10.962407,-61.566467,-116.82871,981.2484,25.086739,384.90274,-268.9477,274.4883
-4.8393865,-0.624437,-6.8871727,106.40073,15.213332,-30.754427,-548.0,-203.0,393.0,963290500.0,NoFix,12,0,0.0,0.0,0,0.0,0.0,0,-15.248525,-61.35174,-112.608925,981.2484,25.086739,391.91733,-241.88155,287.35632
-4.297596,-1.4417148,-7.534567,117.00573,31.593334,-28.934427,-546.0,-202.0,402.0,964592900.0,NoFix,12,0,0.0,0.0,0,0.0,0.0,0,-20.005966,-61.237457,-107.80622,981.24884,25.090424,388.3438,-240.28873,304.61966
-3.1405506,-2.364596,-9.329823,119.14073,6.498333,-26.519426,-547.0,-192.0,406.0,965895300.0,NoFix,12,0,0.0,0.0,0,0.0,0.0,0,-24.423801,-60.534206,-103.340645,981.24884,25.090424,389.96652,-220.86568,311.8675
-3.420629,-2.8788383,-8.898227,115.360725,-32.771667,-25.644426,-548.0,-182.0,408.0,967197630.0,NoFix,12,0,0.0,0.0,0,0.0,0.0,0,-27.888302,-59.030823,-99.91342,981.24884,25.090424,391.5697,-201.34985,315.26437
-4.5914483,-2.6814058,-7.098379,119.31573,-38.966667,-28.969427,-553.0,-175.0,409.0,968500030.0,NoFix,12,0,0.0,0.0,0,0.0,0.0,0,-31.034311,-57.240593,-96.85819,981.24884,25.090424,400.5093,-187.77138,316.91394
-5.1837454,-2.4426506,-6.3407903,109.27073,-8.341667,-40.764427,-551.0,-164.0,414.0,969802430.0,NoFix,12,0,0.0,0.0,0,0.0,0.0,0,-34.27827,-55.937546,-93.874725,981.24884,25.090424,396.6615,-166.36093,326.01157
-4.8669353,-2.7594604,-6.496899,88.34073,25.678333,-55.14943,-552.0,-155.0,421.0,971104830.0,NoFix,12,0,0.0,0.0,0,0.0,0.0,0,-37.689148,-55.310593,-90.9853,981.24884,25.090424,398.337,-149.04022,339.0822
-4.228724,-3.585921,-6.8642154,79.87073,41.498333,-67.32943,-554.0,-146.0,422.0,972407230.0,NoFix,12,0,0.0,0.0,0,0.0,0.0,0,-41.373325,-54.92969,-88.051796,981.24884,25.090424,401.7729,-131.46477,340.60977
-3.9394627,-4.7154174,-7.1856165,91.24573,30.438334,-60.64443,-556.0,-141.0,431.0,973709600.0,NoFix,12,0,0.0,0.0,0,0.0,0.0,0,-44.90192,-54.13809,-85.14237,981.24884,25.090424,405.38086,-122.11321,357.72662
-3.6823416,-4.573083,-7.199391,105.735725,11.363333,-42.86443,-554.0,-135.0,433.0,975012000.0,NoFix,12,0,0.0,0.0,0,0.0,0.0,0,-47.82896,-52.817146,-82.51221,981.24884,25.090424,401.62146,-110.37966,361.27975
-3.7328475,-3.8568168,-6.5474052,94.57073,20.218334,-60.46943,-562.0,-114.0,435.0,976314400.0,NoFix,12,0,0.0,0.0,0,0.0,0.0,0,-50.847607,-51.69476,-80.143234,981.24884,25.090424,415.69818,-69.43319,364.23474
-3.9348712,-4.0588403,-5.9413342,79.31073,47.90333,-75.48443,-557.0,-108.0,440.0,977616800.0,NoFix,12,0,0.0,0.0,0,0.0,0.0,0,-54.29064,-51.024136,-77.54671,981.24976,25.100632,406.5113,-57.76822,373.535
-3.3379831,-4.66032,-6.3729305,74.970726,63.863335,-74.85443,-554.0,-95.0,443.0,978919200.0,NoFix,12,0,0.0,0.0,0,0.0,0.0,0,-57.909817,-50.503025,-74.70533,981.24976,25.100632,400.77808,-32.31505,378.67917
-2.7181375,-5.532695,-7.03869,81.305725,51.998333,-68.06443,-547.0,-87.0,448.0,980221600.0,NoFix,12,0,0.0,0.0,0,0.0,0.0,0,-61.182934,-49.66468,-72.13167,981.24976,25.100632,387.90637,-16.676607,387.86716
-2.7273204,-6.0193887,-7.0065503,86.80073,38.768333,-58.78943,-543.0,-78.0,454.0,981523900.0,NoFix,12,0,0.0,0.0,0,0.0,0.0,0,-63.95054,-48.52595,-69.94774,981.24976,25.100632,380.47757,0.8080931,398.9635
-2.920161,-5.766859,-6.386705,80.99073,46.328335,-56.02443,-546.0,-63.0,458.0,982826300.0,NoFix,12,0,0.0,0.0,0,0.0,0.0,0,-66.60561,-47.476734,-67.79894,981.24976,25.100632,385.62045,30.000153,405.99893
-2.796192,-5.179154,-5.463824,63.595726,77.16333,-65.01943,-536.0,-57.0,468.0,984128700.0,NoFix,12,0,0.0,0.0,0,0.0,0.0,0,-69.75486,-46.876354,-65.14884,981.25146,25.100632,367.3879,41.55083,424.87778
-1.639147,-4.5501256,-5.6382985,40.425728,123.363335,-87.94443,-529.0,-48.0,473.0,985431100.0,NoFix,12,0,0.0,0.0,0,0.0,0.0,0,-74.05221,-46.88932,-61.532475,981.25146,25.100632,354.49268,59.152485,434.01938
-0.5142422,-5.5235124,-6.8871727,6.020729,149.68332,-122.62943,-512.0,-41.0,486.0,986733500.0,NoFix,12,0,0.0,0.0,0,0.0,0.0,0,-79.44071,-47.455482,-57.3653,981.25146,25.100632,323.53354,72.691895,458.55997
-0.5142422,-7.663127,-7.373866,0.105728984,134.52832,-120.87943,-499.0,-32.0,494.0,988035840.0,NoFix,12,0,0.0,0.0,0,0.0,0.0,0,-84.538795,-47.789562,-53.568275,981.25146,25.100632,299.75415,90.29555,473.4194
-0.3122185,-7.9523883,-7.557524,27.755728,108.83833,-86.75443,-490.0,-31.0,504.0,989338240.0,NoFix,12,0,0.0,0.0,0,0.0,0.0,0,-88.48923,-47.365845,-50.428925,981.25146,25.100632,283.4581,92.006645,492.53995
0.4361876,-6.7172885,-7.630987,25.375729,103.72833,-73.489426,-478.0,-25.0,509.0,990640640.0,NoFix,12,0,0.0,0.0,0,0.0,0.0,0,-92.02556,-46.88343,-47.49391,981.25146,25.100632,261.53894,103.83629,501.77188
1.3177457,-5.436275,-7.2039824,-15.539271,133.72333,-94.69943,-458.0,-20.0,515.0,991943040.0,NoFix,12,0,0.0,0.0,0,0.0,0.0,0,-96.60939,-47.018974,-43.678684,981.25146,25.100632,225.10185,113.844536,512.8977
2.3140898,-5.0046787,-7.32336,-66.67427,176.31833,-130.60944,-454.0,-23.0,519.0,993245440.0,NoFix,12,0,0.0,0.0,0,0.0,0.0,0,-102.90727,-47.70139,-38.46714,981.25146,25.100632,217.93584,107.86347,520.69965
2.529888,-6.2719183,-7.7044506,-91.34927,178.62833,-147.23444,-433.0,-23.0,529.0,994547840.0,NoFix,12,0,0.0,0.0,0,0.0,0.0,0,-109.90736,-48.414295,-32.814407,981.25146,25.100632,179.8365,107.89365,539.74945
1.6621044,-7.8238277,-7.2361226,-61.529274,145.13333,-119.54943,-413.0,-24.0,531.0,995850200.0,NoFix,12,0,0.0,0.0,0,0.0,0.0,0,-115.505066,-48.404594,-28.318855,981.25146,25.100632,143.50151,106.30816,543.4516
1.7126102,-7.383049,-6.2719183,-12.109271,118.21833,-56.65443,-403.0,-31.0,538.0,997152600.0,NoFix,12,0,0.0,0.0,0,0.0,0.0,0,-118.91364,-47.58229,-25.15675,981.252,25.1063,125.54548,92.47624,557.157
3.6410186,-5.0230446,-6.157132,9.555729,122.73334,-34.32443,-388.0,-20.0,539.0,998455000.0,NoFix,12,0,0.0,0.0,0,0.0,0.0,0,-121.65375,-46.237267,-22.308138,981.252,25.1063,98.01295,114.37805,558.4259
5.417909,-3.4665437,-7.4335546,-9.449271,135.40332,-70.54943,-372.0,-25.0,544.0,999757400.0,NoFix,12,0,0.0,0.0,0,0.0,0.0,0,-125.28443,-44.968254,-19.080164,981.252,25.1063,69.076935,104.70647,568.12897
5.702579,-4.0267,-8.641107,-49.20927,127.003334,-109.11943,-357.0,-27.0,545.0,1001059800.0,NoFix,12,0,0.0,0.0,0,0.0,0.0,0,-129.80354,-44.23937,-15.574409,981.252,25.1063,41.850216,101.08653,570.0008
5.082733,-5.408726,-7.9202485,-78.99427,108.348335,-121.50943,-344.0,-40.0,540.0,1002362200.0,NoFix,12,0,0.0,0.0,0,0.0,0.0,0,-134.5739,-43.984634,-12.015438,981.252,25.1063,18.461514,76.10252,560.8496
4.435339,-5.867871,-5.840322,-78.53927,101.418335,-108.13943,-329.0,-43.0,543.0,1003664500.0,NoFix,12,0,0.0,0.0,0,0.0,0.0,0,-138.87613,-43.576588,-8.698921,981.253,25.1063,-8.722161,70.426605,566.6188
4.770515,-4.6878686,-4.485845,-64.819275,118.988335,-88.67943,-325.0,-45.0,544.0,1004966900.0,NoFix,12,0,0.0,0.0,0,0.0,0.0,0,-142.78705,-42.60175,-5.429604,981.253,25.1063,-15.94096,66.54789,568.59796
6.336199,-2.8421066,-4.6373625,-54.914272,141.91333,-94.20943,-297.0,-58.0,539.0,1006269300.0,NoFix,12,0,0.0,0.0,0,0.0,0.0,0,-146.7274,-41.0014,-2.171561,981.253,25.1063,-66.61319,41.91675,559.30035
8.044218,-1.6666958,-5.890828,-57.504272,157.03333,-128.01942,-282.0,-63.0,538.0,1007571700.0,NoFix,12,0,0.0,0.0,0,0.0,0.0,0,-151.23306,-39.007206,1.0819747,981.253,25.1063,-93.78886,32.499947,557.4604
